latest.admissions.admission_rate.overall,latest.cost.tuition.in_state,latest.completion.rate_suppressed.lt_four_year_150percent,latest.completion.rate_suppressed.four_year,latest.completion.rate_suppressed.lt_four_year,latest.completion.rate_suppressed.four_year_200percent,latest.completion.rate_suppressed.four_year_100_pooled,latest.completion.rate_suppressed.lt_four_year_100_pooled,latest.completion.rate_suppressed.consumer.median_by_pred_degree,latest.completion.rate_suppressed.consumer.overall_median,latest.completion.rate_suppressed_pell.lt_four_year_150_pooled,latest.completion.rate_suppressed_pell.four_year_150_pooled,latest.completion.rate_suppressed.overall,school.name,school.city,school.state,school.degrees_awarded.highest,school.ownership,id,location.lat,location.lon
0.6622,10024.0,,0.2772,,0.3067,0.1373,,0.5839,0.5859,,0.2674,0.2772,Alabama A & M University,Normal,AL,4,1,100654,34.783368,-86.568502
0.8842,8832.0,,0.6345,,0.6418,0.4382,,0.5839,0.5859,,0.5497,0.6345,University of Alabama at Birmingham,Birmingham,AL,4,1,100663,33.505697,-86.799345
,,,,,,,,0.5839,0.5859,,,,Amridge University,Montgomery,AL,4,2,100690,32.362609,-86.17401
0.7425,11770.0,,0.624,,0.623,0.4005,,0.5839,0.5859,,0.4942,0.624,University of Alabama in Huntsville,Huntsville,AL,4,1,100706,34.724557,-86.640449
0.9564,11248.0,,0.2884,,0.3227,0.1356,,0.5839,0.5859,,0.2728,0.2884,Alabama State University,Montgomery,AL,4,1,100724,32.364317,-86.295677
0.7582,11900.0,,0.7322,,0.7314,0.5552,,0.5839,0.5859,,0.5908,0.7322,The University of Alabama,Tuscaloosa,AL,4,1,100751,33.211875,-87.545978
,5040.0,0.2261,,0.2566,,,0.179,0.6654,0.5859,0.1748,,0.2261,Central Alabama Community College,Alexander City,AL,2,1,100760,32.92478,-85.945266
,,,,,,,,0.5839,0.5859,,,,Athens State University,Athens,AL,4,1,100812,34.806793,-86.964698
0.9263,9436.0,,0.3576,,0.3699,0.1403,,0.5839,0.5859,,0.3269,0.3576,Auburn University at Montgomery,Montgomery,AL,4,1,100830,32.36736,-86.177544
0.5047,12536.0,,0.7996,,0.8119,0.5624,,0.5839,0.5859,,0.6845,0.7996,Auburn University,Auburn,AL,4,1,100858,32.599378,-85.488258
0.5194,22750.0,,0.644,,0.7071,0.5702,,0.5839,0.5859,,0.5367,0.644,Birmingham-Southern College,Birmingham,AL,3,2,100937,33.513774,-86.850552
,5040.0,0.3016,,0.2343,,,0.204,0.6654,0.5859,0.2248,,0.3016,Chattahoochee Valley Community College,Phenix City,AL,2,1,101028,32.42391,-85.031485
,18238.0,,0.1143,,0.1539,0.0793,,0.5839,0.5859,,0.0896,0.1143,South University-Montgomery,Montgomery,AL,4,3,101116,32.342684,-86.216488
,5040.0,0.2919,,0.3417,,,0.1719,0.6654,0.5859,0.2426,,0.2919,Enterprise State Community College,Enterprise,AL,2,1,101143,31.297496,-85.836956
,4980.0,0.2408,,0.2589,,,0.1612,0.3315,0.5859,0.2154,,0.2408,Coastal Alabama Community College,Bay Minette,AL,2,1,101161,30.851343,-87.778193
0.6613,23920.0,,0.3537,,0.2319,0.2096,,0.5839,0.5859,,0.2597,0.3537,Faulkner University,Montgomery,AL,4,2,101189,32.384181,-86.21641
,4032.0,0.2822,,0.3375,,,0.1726,0.6654,0.5859,0.2558,,0.2822,Gadsden State Community College,Gadsden,AL,2,1,101240,33.994001,-85.991438
,,0.5735,,0.6286,,,0.1471,0.6654,0.5859,0.662,,0.5735,New Beginning College of Cosmetology,Albertville,AL,1,3,101277,34.27871,-86.196931
,4920.0,0.2837,,0.3262,,,0.1798,0.6654,0.5859,0.2441,,0.2837,George C Wallace Community College-Dothan,Dothan,AL,2,1,101286,31.315274,-85.465836
,4980.0,0.4678,,0.4729,,,0.2881,0.6654,0.5859,0.3914,,0.4678,George C Wallace State Community College-Hanceville,Hanceville,AL,2,1,101295,34.072439,-86.781935
,4680.0,0.3762,,0.3854,,,0.2667,0.3315,0.5859,0.371,,0.3762,George C Wallace State Community College-Selma,Selma,AL,2,1,101301,32.445917,-87.013294
0.9449,13420.0,,0.2941,,,,,0.6654,0.5859,,0.2264,0.2941,Herzing University-Birmingham,Birmingham,AL,4,2,101365,33.468466,-86.832465
0.7083,28650.0,,0.4851,,0.4331,0.3888,,0.5839,0.5859,,0.4339,0.4851,Huntingdon College,Montgomery,AL,4,2,101435,32.351034,-86.284366
1.0,11982.0,,,,,,,0.5839,0.5859,,,,Heritage Christian University,Florence,AL,4,2,101453,34.856153,-87.663051
,5130.0,0.1168,,0.1757,,,0.073,0.6654,0.5859,0.0804,,0.1168,J. F. Drake State Community and Technical College,Huntsville,AL,2,1,101462,34.771858,-86.572885
,6084.0,0.0958,,0.1609,,,0.0383,0.6654,0.5859,0.093,,0.0958,J F Ingram State Technical College,Deatsville,AL,1,1,101471,32.582312,-86.392369
0.7622,12426.0,,0.5172,,0.5009,0.3138,,0.5839,0.5859,,0.4146,0.5172,Jacksonville State University,Jacksonville,AL,4,1,101480,33.822938,-85.765321
,5040.0,0.2243,,0.2733,,,0.1101,0.3315,0.5859,0.2238,,0.2243,Jefferson State Community College,Birmingham,AL,2,1,101505,33.652535,-86.707233
,5060.0,0.3808,,0.3954,,,0.2527,0.6654,0.5859,0.3084,,0.3808,John C Calhoun State Community College,Tanner,AL,2,1,101514,34.645844,-86.949674
,4980.0,0.2427,,0.2659,,,0.1644,0.3315,0.5859,0.223,,0.2427,Lawson State Community College,Birmingham,AL,2,1,101569,33.450814,-86.888844
0.8711,10990.0,,0.3823,,0.4345,0.2394,,0.5839,0.5859,,0.3536,0.3823,University of West Alabama,Livingston,AL,4,1,101587,32.588132,-88.186329
,4980.0,0.3752,,0.5783,,,0.2969,0.6654,0.5859,0.4441,,0.3752,Lurleen B Wallace Community College,Andalusia,AL,2,1,101602,31.322947,-86.452262
0.5917,9538.0,0.2898,,0.3098,,,0.2476,0.3315,0.5859,0.3105,,0.2898,Marion Military Institute,Marion,AL,2,1,101648,32.623734,-87.322041
,12714.0,,0.2609,,0.2489,0.1571,,0.5839,0.5859,,0.2278,0.2609,Miles College,Fairfield,AL,3,2,101675,33.482442,-86.908751
0.7251,26120.0,,0.5067,,0.5054,0.4178,,0.5839,0.5859,,0.5224,0.5067,University of Mobile,Mobile,AL,4,2,101693,30.793247,-88.128934
0.539,13710.0,,0.5204,,0.5412,0.3717,,0.5839,0.5859,,0.4778,0.5204,University of Montevallo,Montevallo,AL,4,1,101709,33.10625,-86.865099
,5071.0,0.2952,,0.3534,,,0.1974,0.6654,0.5859,0.2405,,0.2952,Northwest Shoals Community College,Muscle Shoals,AL,2,1,101736,34.739788,-87.678089
0.9648,11990.0,,0.5314,,0.528,0.317,,0.5839,0.5859,,0.4111,0.5314,University of North Alabama,Florence,AL,4,1,101879,34.80731,-87.680407
,4980.0,0.3916,,0.5099,,,0.2747,0.6654,0.5859,0.3502,,0.3916,Northeast Alabama Community College,Rainsville,AL,2,1,101897,34.545471,-85.911664
0.5051,21838.0,,0.4775,,0.5128,0.3248,,0.5839,0.5859,,0.3602,0.4775,Oakwood University,Huntsville,AL,4,2,101912,34.756344,-86.652705
,6100.0,0.4845,,0.3955,,,0.3917,0.6654,0.5859,0.4844,,0.4845,Reid State Technical College,Evergreen,AL,2,1,101994,31.460265,-86.964797
,5280.0,0.2241,,0.2748,,,0.1675,0.6654,0.5859,0.1297,,0.2241,Bishop State Community College,Mobile,AL,2,1,102030,30.693972,-88.056982
0.8223,38144.0,,0.788,,0.7894,0.706,,0.5839,0.5859,,0.6624,0.788,Samford University,Birmingham,AL,4,2,102049,33.464128,-86.791799
,4800.0,,0.24,,0.0216,0.0444,,0.5839,0.5859,,0.2791,0.24,Selma University,Selma,AL,4,2,102058,32.420387,-87.032392
,5067.0,0.2224,,0.2835,,,0.1304,0.6654,0.5859,0.2184,,0.2224,Shelton State Community College,Tuscaloosa,AL,2,1,102067,33.120531,-87.56148
,5472.0,0.4364,,0.4571,,,0.367,0.6654,0.5859,0.4336,,0.4364,Snead State Community College,Boaz,AL,2,1,102076,34.201495,-86.169897
0.6549,9676.0,,0.5006,,0.4837,0.3246,,0.5839,0.5859,,0.4523,0.5006,University of South Alabama,Mobile,AL,4,1,102094,30.696033,-88.178711
0.591,23270.0,,0.5882,,0.5753,0.511,,0.5839,0.5859,,0.4467,0.5882,Spring Hill College,Mobile,AL,4,2,102234,30.694751,-88.138199
0.7422,11392.0,,0.3264,,0.1886,0.1901,,0.5839,0.5859,,0.3144,0.3264,Stillman College,Tuscaloosa,AL,3,2,102270,33.200006,-87.585278
0.9925,15650.0,,0.5119,,0.2647,0.4687,,0.5839,0.5859,,0.5973,0.5119,Talladega College,Talladega,AL,4,2,102298,33.433472,-86.112704
,4890.0,0.1905,,0.2931,,,0.1014,0.3315,0.5859,0.1916,,0.1905,H Councill Trenholm State Community College,Montgomery,AL,2,1,102313,32.350109,-86.343057
0.9261,9792.0,,0.4619,,0.5232,0.2609,,0.5839,0.5859,,0.3873,0.4619,Troy University,Troy,AL,4,1,102368,31.799583,-85.95802
0.3143,23440.0,,0.6184,,0.5475,0.3195,,0.5839,0.5859,,0.7977,0.6184,Tuskegee University,Tuskegee,AL,4,2,102377,32.4309,-85.708492
0.3529,18900.0,,,,,,,0.5839,0.5859,,,,United States Sports Academy,Daphne,AL,4,2,102395,30.639329,-87.91163
,4678.0,0.3914,,0.399,,,0.2442,0.6654,0.5859,0.3358,,0.3914,Bevill State Community College,Jasper,AL,2,1,102429,33.837056,-87.265258
0.6652,7566.0,,0.2944,,0.3578,0.1483,,0.5839,0.5859,,0.2208,0.2944,University of Alaska Anchorage,Anchorage,AK,4,1,102553,61.190163,-149.82619
,10930.0,,,,,,,0.5839,0.5859,,,,Alaska Bible College,Palmer,AK,3,2,102580,61.598553,-149.111972
,8640.0,,0.3532,,0.4667,0.2321,,0.5839,0.5859,,0.2541,0.3532,University of Alaska Fairbanks,Fairbanks,AK,4,1,102614,64.85756,-147.823146
0.625,6960.0,,0.2821,,0.2338,0.2,,0.6654,0.5859,,0.2022,0.2821,University of Alaska Southeast,Juneau,AK,4,1,102632,58.384846,-134.638255
0.8621,20760.0,,0.4118,,0.3519,0.103,,0.5839,0.5859,,0.3214,0.4118,Alaska Pacific University,Anchorage,AK,4,2,102669,61.190968,-149.804168
,,0.8579,,0.9132,,,0.8579,0.6654,0.5859,1.0,,0.8579,Alaska Vocational Technical Center,Seward,AK,1,1,102711,60.110626,-149.444487
,18678.0,,0.5621,,,0.009,,0.6654,0.5859,,0.5529,0.5621,Charter College,Anchorage,AK,3,3,102845,61.19633,-149.839274
,,0.6777,,0.7211,,,0.6777,0.6654,0.5859,0.7373,,0.6777,Alaska Career College,Anchorage,AK,2,3,103501,61.181443,-149.856954
,,0.6767,,0.5893,,,0.0602,0.6654,0.5859,0.6698,,0.6767,Empire Beauty School-Tucson,Tucson,AZ,1,3,103741,32.235657,-110.927187
,,0.5376,,0.611,,,0.3726,0.6654,0.5859,0.5395,,0.5376,Carrington College-Phoenix North,Phoenix,AZ,2,3,103893,33.565758,-112.104601
,,0.495,,0.5527,,,0.3308,0.6654,0.5859,0.4858,,0.495,Carrington College-Mesa,Mesa,AZ,2,3,103909,33.39248,-111.853218
,,0.5947,,0.6584,,,0.4345,0.6654,0.5859,0.6215,,0.5947,Carrington College-Tucson,Tucson,AZ,2,3,103927,32.224391,-110.983056
,,0.5116,,0.5682,,,0.4651,0.6654,0.5859,0.5263,,0.5116,Arizona Academy of Beauty,Tucson,AZ,1,3,103954,32.237253,-110.872305
,,0.5225,,0.5398,,,0.4256,0.6654,0.5859,0.4915,,0.5225,Miller-Motte College-Arizona Automotive Institute,Glendale,AZ,2,3,103963,33.537249,-112.157344
,,,0.5355,,0.2857,0.3036,,0.5839,0.5859,,0.5556,0.5355,Brookline College-Phoenix,Phoenix,AZ,4,3,104090,33.566102,-112.112473
0.9019,12051.0,,0.6737,,0.6758,0.5406,,0.5839,0.5859,,0.5927,0.6737,Arizona State University Campus Immersion,Tempe,AZ,4,1,104151,33.417721,-111.934383
,3020.0,0.2255,,0.2491,,,0.0735,0.3315,0.5859,0.2238,,0.2255,Arizona Western College,Yuma,AZ,2,1,104160,32.689306,-114.495968
0.8566,13626.0,,0.6692,,0.6613,0.5247,,0.5839,0.5859,,0.5912,0.6692,University of Arizona,Tucson,AZ,4,1,104179,32.232672,-110.950815
,2250.0,0.2005,,0.2115,,,0.1145,0.6654,0.5859,0.2057,,0.2005,Central Arizona College,Coolidge,AZ,2,1,104346,32.957092,-111.652501
,,0.75,,0.6714,,,0.2361,0.6654,0.5859,1.0,,0.75,Charles of Italy Beauty College,Lake Havasu City,AZ,1,3,104391,34.477485,-114.332686
,2232.0,0.2775,,0.3407,,,0.1273,0.3315,0.5859,0.1604,,0.2775,Cochise County Community College District,Sierra Vista,AZ,2,1,104425,31.564597,-110.246946
,,0.4102,,0.4468,,,0.0257,0.6654,0.5859,0.4118,,0.4102,Empire Beauty School-Chandler,Chandler,AZ,1,3,104443,33.347586,-111.860423
,,0.7227,,0.6411,,,0.5693,0.6654,0.5859,0.6273,,0.7227,Avalon Institute-Mesa,Mesa,AZ,1,3,104568,33.376583,-111.858305
,2352.0,0.4344,,0.4823,,,0.2253,0.6654,0.5859,0.2542,,0.4344,Eastern Arizona College,Thatcher,AZ,2,1,104577,32.843664,-109.76234
0.7519,42204.0,,0.7017,,0.6583,0.4777,,0.5839,0.5859,,0.6201,0.7017,Embry-Riddle Aeronautical University-Prescott,Prescott,AZ,4,2,104586,34.616766,-112.449741
,,,,,,,,,0.5859,,,,The School of Architecture,Scottsdale,AZ,4,2,104665,33.524271,-111.916785
,2358.0,,0.144,,,,,0.6654,0.5859,0.1135,,0.144,Glendale Community College,Glendale,AZ,2,1,104708,33.570226,-112.190735
0.6036,17450.0,,0.4404,,0.4729,0.3713,,0.5839,0.5859,,0.3853,0.4404,Grand Canyon University,Phoenix,AZ,4,3,104717,33.513231,-112.129929
,2358.0,,0.1955,,,,,0.6654,0.5859,0.2181,,0.1955,GateWay Community College,Phoenix,AZ,2,1,105145,33.449686,-111.997077
,2358.0,0.1556,,0.2007,,,0.0765,0.6654,0.5859,0.142,,0.1556,Mesa Community College,Mesa,AZ,2,1,105154,33.390323,-111.871255
,2136.0,0.2757,,0.2695,,,0.2181,0.6654,0.5859,0.2807,,0.2757,Mohave Community College,Kingman,AZ,2,1,105206,35.270996,-114.029838
,,0.6416,,0.6945,,,0.2782,0.6654,0.5859,0.6156,,0.6416,Universal Technical Institute of Arizona Inc-Motorcycle Mechanics Institute Division,Avondale,AZ,2,3,105215,33.453005,-112.288123
,1410.0,,0.1256,,,,,0.3315,0.5859,,0.1193,0.1256,Dine College,Tsaile,AZ,3,1,105297,36.293328,-109.21684
0.9095,12652.0,,0.5796,,0.5907,0.4592,,0.5839,0.5859,,0.5086,0.5796,Northern Arizona University,Flagstaff,AZ,4,1,105330,35.188449,-111.653724
,2428.0,0.0781,,0.1945,,,0.0469,0.6654,0.5859,0.0816,,0.0781,Northland Pioneer College,Holbrook,AZ,2,1,105349,34.93031,-110.142199
,2358.0,0.1449,,0.1908,,,0.072,0.6654,0.5859,0.1461,,0.1449,Phoenix College,Phoenix,AZ,2,1,105428,33.481361,-112.088293
,2370.0,0.1956,,0.2295,,,0.0844,0.6654,0.5859,0.1577,,0.1956,Pima Community College,Tucson,AZ,2,1,105525,32.222125,-110.886659
,,,0.7083,,,,,0.3315,0.5859,,0.7035,0.7083,Pima Medical Institute-Tucson,Tucson,AZ,4,3,105534,32.248067,-110.878783
,,0.537,,0.5783,,,0.1445,0.6654,0.5859,0.5485,,0.537,Pima Medical Institute-Albuquerque,Albuquerque,NM,2,3,105543,35.104855,-106.59488
0.9857,35685.0,,0.4414,,0.4474,0.3784,,0.5839,0.5859,,0.44,0.4414,Prescott College,Prescott,AZ,4,2,105589,34.5452,-112.477185
,,0.6684,,0.6728,,,0.4827,0.6654,0.5859,0.6429,,0.6684,Refrigeration School Inc,Phoenix,AZ,2,3,105659,33.448692,-111.989357
,2358.0,,0.039,,,,,0.6654,0.5859,0.1096,,0.039,Rio Salado College,Tempe,AZ,2,1,105668,33.413309,-111.97417
,,0.9219,,0.9677,,,0.9219,0.6654,0.5859,0.9091,,0.9219,Roberto-Venn School of Luthiery,Phoenix,AZ,1,3,105677,33.45489,-112.086161
,2358.0,0.2309,,0.2497,,,0.1339,0.6654,0.5859,0.2397,,0.2309,Scottsdale Community College,Scottsdale,AZ,2,1,105747,33.51135,-111.885186
,2358.0,0.1916,,0.2193,,,0.0923,0.6654,0.5859,0.1595,,0.1916,South Mountain Community College,Phoenix,AZ,2,1,105792,33.382406,-112.032635
0.7442,34697.0,,0.4321,,0.4066,0.3799,,0.5839,0.5859,,0.2843,0.4321,Arizona Christian University,Glendale,AZ,3,2,105899,33.622952,-112.181776
,,0.5653,,0.5711,,,0.1784,0.3315,0.5859,0.5333,,0.5653,Universal Technical Institute of Arizona Inc,Avondale,AZ,2,3,106041,33.453005,-112.288123
,2838.0,,0.3213,,,,,0.6654,0.5859,0.3147,,0.3213,Yavapai College,Prescott,AZ,2,1,106148,34.547495,-112.453395
0.5774,8455.0,,0.4169,,0.4134,0.248,,0.5839,0.5859,,0.3748,0.4169,University of Arkansas at Little Rock,Little Rock,AR,4,1,106245,34.723254,-92.339778
,,,,,,,,0.5839,0.5859,,,,University of Arkansas for Medical Sciences,Little Rock,AR,4,1,106263,34.750152,-92.322348
,8760.0,,0.0816,,,0.0024,,0.5839,0.5859,,0.0577,0.0816,Arkansas Baptist College,Little Rock,AR,3,2,106306,34.734751,-92.290555
,,,,,,,,0.6654,0.5859,,,,Arkansas Beauty School-Little Rock,Little Rock,AR,1,3,106315,34.672171,-92.343366
,,0.587,,0.5883,,,0.2826,0.6654,0.5859,0.8393,,0.587,Arkansas Beauty College,Russellville,AR,1,3,106324,35.27902,-93.135369
0.6554,31000.0,,0.4677,,0.4411,0.3721,,0.5839,0.5859,,0.5098,0.4677,Lyon College,Batesville,AR,3,2,106342,35.777619,-91.625354
,,,,,,,,0.6654,0.5859,,,,Arkansas Technical School,North Little Rock,AR,1,3,106351,34.753843,-92.266429
0.7167,9748.0,,0.6961,,0.7077,0.5441,,0.5839,0.5859,,0.5629,0.6961,University of Arkansas,Fayetteville,AR,4,1,106397,36.070009,-94.176981
0.5754,9019.0,,0.4057,,0.418,0.2567,,0.5839,0.5859,,0.3829,0.4057,University of Arkansas at Pine Bluff,Pine Bluff,AR,4,1,106412,34.244031,-92.018683
,3216.0,0.3819,,0.4265,,,0.2872,0.3315,0.5859,0.3594,,0.3819,Arkansas State University-Beebe,Beebe,AR,2,1,106449,35.074176,-91.895351
0.6967,7754.0,,0.5388,,0.539,0.3932,,0.5839,0.5859,,0.4498,0.5388,Arkansas State University,Jonesboro,AR,4,1,106458,35.842388,-90.679988
0.9629,8508.0,,0.4877,,0.433,0.3181,,0.3315,0.5859,,0.4176,0.4877,Arkansas Tech University,Russellville,AR,4,1,106467,35.293237,-93.13562
,8868.0,,0.4124,,0.271,0.2113,,0.6654,0.5859,,0.3559,0.4124,University of Arkansas at Monticello,Monticello,AR,4,1,106485,33.590909,-91.811153
,,0.3404,,0.3409,,,0.1064,0.6654,0.5859,0.3182,,0.3404,Arthur's Beauty College,Jacksonville,AR,1,3,106494,34.891572,-92.102579
1.0,13593.0,,,,,,,0.3315,0.5859,,,,Baptist Health College Little Rock,Little Rock,AR,2,2,106546,34.713115,-92.40692
,4584.0,0.3362,,0.3361,,,0.227,0.6654,0.5859,0.2713,,0.3362,Black River Technical College,Pocahontas,AR,2,1,106625,36.239793,-90.951033
0.9047,10118.0,,0.5174,,0.486,0.3798,,0.5839,0.5859,,0.4026,0.5174,University of Central Arkansas,Conway,AR,4,1,106704,35.077945,-92.457672
0.4636,19680.0,,0.3716,,0.447,0.2467,,0.5839,0.5859,,0.2537,0.3716,Central Baptist College,Conway,AR,3,2,106713,35.083838,-92.445021
,3906.0,0.4667,,0.4782,,,0.359,0.6654,0.5859,0.4746,,0.4667,Cossatot Community College of the University of Arkansas,De Queen,AR,2,1,106795,34.043389,-94.3673
,16440.0,,0.2876,,0.3509,0.2204,,0.5839,0.5859,,0.2338,0.2876,Crowley's Ridge College,Paragould,AR,3,2,106810,36.064845,-90.584395
,3960.0,0.4312,,0.4569,,,0.3242,0.6654,0.5859,0.3385,,0.4312,East Arkansas Community College,Forrest City,AR,2,1,106883,35.041655,-90.767726
,,0.5673,,0.5789,,,0.0289,0.6654,0.5859,0.5447,,0.5673,Paul Mitchell the School-Little Rock,North Little Rock,AR,1,3,106908,34.789913,-92.222202
,5600.0,0.3091,,0.2954,,,0.2764,0.6654,0.5859,0.2904,,0.3091,National Park College,Hot Springs,AR,2,1,106980,34.512687,-93.119248
,3558.0,0.5881,,0.6468,,,0.5129,0.6654,0.5859,0.5287,,0.5881,University of Arkansas Community College-Batesville,Batesville,AR,2,1,106999,35.792923,-91.615852
1.0,24888.0,,0.7018,,0.7016,0.5386,,0.5839,0.5859,,0.5783,0.7018,Harding University,Searcy,AR,4,2,107044,35.247386,-91.726143
0.8192,7885.0,,0.3869,,0.3729,0.2844,,0.5839,0.5859,,0.344,0.3869,Henderson State University,Arkadelphia,AR,4,1,107071,34.128155,-93.059703
0.5298,36650.0,,0.6889,,0.7031,0.6468,,0.5839,0.5859,,0.6298,0.6889,Hendrix College,Conway,AR,4,2,107080,35.101565,-92.443256
,,0.5714,,0.72,,,,0.6654,0.5859,0.5667,,0.5714,Hot Springs Beauty College,Hot Springs,AR,1,3,107099,34.496057,-93.037277
,,,,,,,,0.3315,0.5859,,,,Jefferson Regional School of Nursing,Pine Bluff,AR,2,2,107123,34.187831,-92.018045
0.6764,30832.0,,0.6898,,0.6982,0.6188,,0.5839,0.5859,,0.6053,0.6898,John Brown University,Siloam Springs,AR,4,2,107141,36.189812,-94.560283
,,0.6724,,0.6007,,,0.1293,0.6654,0.5859,0.672,,0.6724,Career Academy of Hair Design,Springdale,AR,1,3,107220,36.167605,-94.12947
,,0.619,,0.5294,,,,0.6654,0.5859,0.6226,,0.619,Academy of Salon and Spa,Fort Smith,AR,1,3,107293,35.38097,-94.41616
,3048.0,0.4596,,0.3842,,,0.3913,0.6654,0.5859,0.4483,,0.4596,Arkansas State University Mid-South,West Memphis,AR,2,1,107318,35.145736,-90.22285
,2570.0,0.3267,,0.4139,,,0.2384,0.6654,0.5859,0.2958,,0.3267,Arkansas Northeastern College,Blytheville,AR,2,1,107327,35.898597,-89.921005
,,0.5217,,0.6909,,,0.0435,0.6654,0.5859,0.561,,0.5217,New Tyler Barber College Inc,North Little Rock,AR,1,3,107442,34.760085,-92.254171
,3168.0,0.3077,,0.3338,,,0.2023,0.6654,0.5859,0.259,,0.3077,North Arkansas College,Harrison,AR,2,1,107460,36.219909,-93.08844
,5184.0,0.7159,,0.676,,,0.0341,0.6654,0.5859,0.5849,,0.7159,Northwest Technical Institute,Springdale,AR,1,1,107488,36.178032,-94.115346
0.6852,32480.0,,0.679,,0.635,0.6165,,0.5839,0.5859,,0.5788,0.679,Ouachita Baptist University,Arkadelphia,AR,4,2,107512,34.126093,-93.052471
,3568.0,0.3529,,0.3943,,,0.1429,0.6654,0.5859,0.3483,,0.3529,Arkansas State University Three Rivers,Malvern,AR,2,1,107521,34.378745,-92.821416
,3820.0,0.4534,,0.5047,,,0.4148,0.6654,0.5859,0.4735,,0.4534,Ozarka College,Melbourne,AR,2,1,107549,36.053031,-91.896355
0.5814,25950.0,,0.4718,,0.4868,0.3815,,0.5839,0.5859,,0.402,0.4718,University of the Ozarks,Clarksville,AR,3,2,107558,35.476278,-93.467221
1.0,3504.0,0.4112,,0.4125,,,0.283,0.6654,0.5859,0.381,,0.4112,University of Arkansas Community College-Morrilton,Morrilton,AR,2,1,107585,35.172136,-92.728507
,13014.0,,0.3146,,0.3179,0.1755,,0.5839,0.5859,,0.3072,0.3146,Philander Smith University,Little Rock,AR,3,2,107600,34.737131,-92.283015
,3230.0,0.487,,0.5361,,,0.3346,0.6654,0.5859,0.4389,,0.487,Phillips Community College of the University of Arkansas,Helena,AR,2,1,107619,34.546155,-90.616884
,4960.0,0.2163,,0.3033,,,0.149,0.6654,0.5859,0.1579,,0.2163,Southeast Arkansas College,Pine Bluff,AR,2,1,107637,34.210309,-92.025936
,,0.4103,,0.6,,,0.0769,0.6654,0.5859,0.4516,,0.4103,University of Aesthetics & Cosmetology,El Dorado,AR,1,3,107655,33.216032,-92.664101
,4848.0,0.2747,,0.2769,,,0.1453,0.6654,0.5859,0.2334,,0.2747,University of Arkansas-Pulaski Technical College,North Little Rock,AR,2,1,107664,34.782783,-92.299184
,3400.0,0.4503,,0.4672,,,0.3378,0.6654,0.5859,0.4225,,0.4503,University of Arkansas Hope-Texarkana,Hope,AR,2,1,107725,33.641665,-93.596762
,3528.0,0.5889,,0.5825,,,0.5024,0.6654,0.5859,0.5926,,0.5889,University of Arkansas Community College Rich Mountain,Mena,AR,2,1,107743,34.591449,-94.219799
,,0.6942,,0.6588,,,0.0496,0.6654,0.5859,0.6522,,0.6942,Paul Mitchell the School-Arkansas,Fayetteville,AR,1,3,107789,36.126373,-94.153892
,,0.3636,,0.5238,,,0.0303,0.6654,0.5859,0.3544,,0.3636,Searcy Beauty College,Searcy,AR,1,3,107831,35.239148,-91.735135
,6246.0,0.0844,,0.1686,,,0.0844,0.3315,0.5859,0.0986,,0.0844,Shorter College,N Little Rock,AR,2,2,107840,34.75933,-92.261331
0.5888,20330.0,,0.3984,,0.3518,0.288,,0.5839,0.5859,,0.3672,0.3984,Williams Baptist University,Walnut Ridge,AR,4,2,107877,36.125676,-90.940277
,3204.0,0.2673,,0.3621,,,0.1509,0.6654,0.5859,0.2676,,0.2673,South Arkansas College,El Dorado,AR,2,1,107974,33.209446,-92.666087
0.6659,9820.0,,0.4553,,0.4031,0.2703,,0.5839,0.5859,,0.4004,0.4553,Southern Arkansas University Main Campus,Magnolia,AR,4,1,107983,33.291618,-93.235922
,4685.0,0.6215,,0.5575,,,0.3051,0.6654,0.5859,0.5726,,0.6215,Southern Arkansas University Tech,Camden,AR,2,1,107992,33.628367,-92.721629
,,0.7759,,0.8,,,0.5517,0.6654,0.5859,0.8654,,0.7759,Velvatex College of Beauty Culture,Little Rock,AR,1,3,108065,34.735685,-92.289597
0.8147,6906.0,,0.3945,,0.2821,0.1494,,0.5839,0.5859,,0.361,0.3945,University of Arkansas-Fort Smith,Fort Smith,AR,4,1,108092,35.384184,-94.373729
,28024.0,,0.4236,,0.443,0.1075,,0.5839,0.5859,,0.2727,0.4236,Academy of Art University,San Francisco,CA,4,3,108232,37.787943,-122.400578
,,,,,,,,,0.5859,,,,Academy of Chinese Culture and Health Sciences,Oakland,CA,4,2,108269,37.805972,-122.269839
,1148.0,0.3487,,0.3735,,,0.1988,0.3315,0.5859,0.381,,0.3487,College of Alameda,Alameda,CA,2,1,108667,37.781017,-122.279303
,1156.0,0.2823,,0.3505,,,0.1183,0.3315,0.5859,0.287,,0.2823,Allan Hancock College,Santa Maria,CA,2,1,108807,34.943716,-120.421144
0.8968,39475.0,0.6228,,0.6326,,,0.6228,0.3315,0.5859,0.5778,,0.6228,American Academy of Dramatic Arts-Los Angeles,Los Angeles,CA,2,2,108852,34.095378,-118.343701
0.6296,2896.0,,,,,,,0.6654,0.5859,,,,Berkeley School of Theology,Berkeley,CA,4,2,108861,37.865252,-122.256149
,,,,,,,,,0.5859,,,,American Film Institute Conservatory,Los Angeles,CA,4,2,108870,34.10767,-118.310018
,,0.6418,,0.5052,,,0.2836,0.6654,0.5859,0.5962,,0.6418,American Beauty College,West Covina,CA,1,3,108977,34.069367,-117.936959
,,0.684,,0.7169,,,0.3992,0.6654,0.5859,0.6672,,0.684,American Career College-Los Angeles,Los Angeles,CA,2,3,109040,34.079323,-118.292481
,1288.0,0.2955,,0.3465,,,0.1224,0.3315,0.5859,0.2728,,0.2955,American River College,Sacramento,CA,2,1,109208,38.65085,-121.349672
,1124.0,,0.3048,,,,,0.3315,0.5859,,0.2793,0.3048,Antelope Valley Community College District,Lancaster,CA,3,1,109350,34.676207,-118.186166
0.7498,51640.0,,0.7918,,0.7865,0.3462,,0.5839,0.5859,,0.8679,0.7918,Art Center College of Design,Pasadena,CA,4,2,109651,34.169031,-118.185102
,,0.8592,,0.6609,,,0.7621,0.6654,0.5859,0.9305,,0.8592,Associated Technical College-Los Angeles,Los Angeles,CA,1,3,109721,34.056102,-118.272364
,,0.7561,,0.7675,,,0.6951,0.6654,0.5859,0.7654,,0.7561,Associated Technical College-San Diego,San Diego,CA,1,3,109730,32.773178,-117.135196
0.7948,43600.0,,0.6282,,0.698,0.4681,,0.5839,0.5859,,0.4835,0.6282,Azusa Pacific University,Azusa,CA,4,2,109785,34.130047,-117.888375
,1430.0,,0.2243,,,,,0.3315,0.5859,,0.2075,0.2243,Bakersfield College,Bakersfield,CA,3,1,109819,35.40911,-118.973753
,1104.0,0.3171,,0.3528,,,0.1924,0.3315,0.5859,0.3323,,0.3171,Barstow Community College,Barstow,CA,2,1,109907,34.870285,-117.023412
,,0.563,,0.5,,,0.0924,0.6654,0.5859,0.5618,,0.563,Bellus Academy-Chula Vista,Chula Vista,CA,1,3,109934,32.614773,-117.083738
,7220.0,,0.1194,,0.1028,0.0508,,0.5839,0.5859,,0.1758,0.1194,Bethesda University,Anaheim,CA,4,2,110060,33.842295,-117.941323
0.6008,46704.0,,0.7041,,0.7202,0.5759,,0.5839,0.5859,,0.6322,0.7041,Biola University,La Mirada,CA,4,2,110097,33.906203,-118.014374
,,0.8568,,0.8702,,,0.8034,0.6654,0.5859,0.8396,,0.8568,Brownson Technical School,Anaheim,CA,1,3,110194,33.819032,-117.905774
,12185.0,,0.2946,,0.3652,0.266,,0.6654,0.5859,,0.2771,0.2946,Bryan University,Tempe,AZ,3,3,110219,33.437779,-111.944197
,1336.0,0.3281,,0.399,,,0.1744,0.3315,0.5859,0.3069,,0.3281,Butte College,Oroville,CA,2,1,110246,39.649782,-121.644831
,,,,,,,,0.5839,0.5859,,,,California Institute of Integral Studies,San Francisco,CA,4,2,110316,37.774924,-122.416102
,1270.0,0.3526,,0.4164,,,0.1483,0.3315,0.5859,0.3384,,0.3526,Cabrillo College,Aptos,CA,2,1,110334,36.989448,-121.924797
0.7357,39720.0,,0.612,,0.6181,0.4295,,0.5839,0.5859,,0.5457,0.612,California Baptist University,Riverside,CA,4,2,110361,33.929321,-117.425619
0.734,57946.0,,0.6572,,0.6784,0.4674,,0.5839,0.5859,,0.5583,0.6572,California College of the Arts,San Francisco,CA,4,2,110370,37.767485,-122.399451
,,,,,,,,,0.5859,,,,University of California College of the Law-San Francisco,San Francisco,CA,4,1,110398,37.781137,-122.4157
0.0314,63255.0,,0.936,,0.9398,0.7996,,0.5839,0.5859,,0.9138,0.936,California Institute of Technology,Pasadena,CA,4,2,110404,34.137349,-118.125878
0.8888,50670.0,,0.7359,,0.7307,0.6713,,0.5839,0.5859,,0.7239,0.7359,California Lutheran University,Thousand Oaks,CA,4,2,110413,34.224566,-118.878924
0.2975,11075.0,,0.8532,,0.8573,0.6046,,0.5839,0.5859,,0.7999,0.8532,California Polytechnic State University-San Luis Obispo,San Luis Obispo,CA,4,1,110422,35.299513,-120.657311
0.0,13918.0,,0.1714,,0.1786,0.1143,,0.6654,0.5859,,,0.1714,Alliant International University-San Diego,San Diego,CA,4,3,110468,32.897056,-117.094398
0.8819,7696.0,,0.4949,,0.5125,0.2473,,0.5839,0.5859,,0.4673,0.4949,California State University-Bakersfield,Bakersfield,CA,4,1,110486,35.350005,-119.104711
0.9747,7826.0,,0.5665,,0.6228,0.2522,,0.5839,0.5859,,0.5643,0.5665,California State University-Stanislaus,Turlock,CA,4,1,110495,37.52577,-120.852511
0.9825,7675.0,,0.5453,,0.6245,0.2431,,0.5839,0.5859,,0.5332,0.5453,California State University-San Bernardino,San Bernardino,CA,4,1,110510,34.182622,-117.323801
0.737,7439.0,,0.6652,,0.7303,0.2775,,0.5839,0.5859,,0.6204,0.6652,California State Polytechnic University-Pomona,Pomona,CA,4,1,110529,34.057912,-117.821476
0.9372,8064.0,,0.639,,0.6789,0.3333,,0.5839,0.5859,,0.575,0.639,California State University-Chico,Chico,CA,4,1,110538,39.729712,-121.844859
0.9132,7064.0,,0.4668,,0.5545,0.176,,0.5839,0.5859,,0.4614,0.4668,California State University-Dominguez Hills,Carson,CA,4,1,110547,33.864766,-118.255917
0.9638,6980.0,,0.5552,,0.6239,0.2307,,0.5839,0.5859,,0.5222,0.5552,California State University-Fresno,Fresno,CA,4,1,110556,36.811154,-119.744569
0.8674,7073.0,,0.6926,,0.7457,0.3441,,0.5839,0.5859,,0.6627,0.6926,California State University-Fullerton,Fullerton,CA,4,1,110565,33.881506,-117.885446
0.9681,7055.0,,0.4552,,0.5331,0.1495,,0.5839,0.5859,,0.4247,0.4552,California State University-East Bay,Hayward,CA,4,1,110574,37.657694,-122.054135
0.4712,7008.0,,0.7126,,0.774,0.38,,0.5839,0.5859,,0.6815,0.7126,California State University-Long Beach,Long Beach,CA,4,1,110583,33.782818,-118.11204
0.9193,6813.0,,0.5198,,0.5753,0.1894,,0.5839,0.5859,,0.5157,0.5198,California State University-Los Angeles,Los Angeles,CA,4,1,110592,34.066927,-118.168965
0.9315,7095.0,,0.561,,0.5973,0.24,,0.5839,0.5859,,0.5282,0.561,California State University-Northridge,Northridge,CA,4,1,110608,34.240126,-118.529319
0.9362,7602.0,,0.5512,,0.6113,0.2384,,0.5839,0.5859,,0.5253,0.5512,California State University-Sacramento,Sacramento,CA,4,1,110617,38.559415,-121.423549
0.1166,14850.0,,0.9345,,0.9386,0.8125,,0.5839,0.5859,,0.8859,0.9345,University of California-Berkeley,Berkeley,CA,4,1,110635,37.871918,-122.260463
0.4163,15247.0,,0.857,,0.8801,0.6735,,0.5839,0.5859,,0.8136,0.857,University of California-Davis,Davis,CA,4,1,110644,38.539667,-121.749567
0.2557,14237.0,,0.8628,,0.8523,0.7288,,0.5839,0.5859,,0.8439,0.8628,University of California-Irvine,Irvine,CA,4,1,110653,33.648434,-117.841248
0.0873,13747.0,,0.9257,,0.9261,0.8506,,0.5839,0.5859,,0.8949,0.9257,University of California-Los Angeles,Los Angeles,CA,4,1,110662,34.07178,-118.442179
0.633,14170.0,,0.7627,,0.7827,0.6371,,0.5839,0.5859,,0.7562,0.7627,University of California-Riverside,Riverside,CA,4,1,110671,33.97246,-117.32741
0.2452,15265.0,,0.8768,,0.8965,0.734,,0.5839,0.5859,,0.8327,0.8768,University of California-San Diego,La Jolla,CA,4,1,110680,32.877749,-117.235866
,,,,,,,,,0.5859,,,,University of California-San Francisco,San Francisco,CA,4,1,110699,37.763737,-122.458489
0.2778,14965.0,,0.8551,,0.8564,0.7305,,0.5839,0.5859,,0.8189,0.8551,University of California-Santa Barbara,Santa Barbara,CA,4,1,110705,34.416297,-119.846426
0.6254,14560.0,,0.7571,,0.7798,0.6153,,0.5839,0.5859,,0.7396,0.7571,University of California-Santa Cruz,Santa Cruz,CA,4,1,110714,36.995584,-122.058801
,,,,,,,,0.5839,0.5859,,,,Sofia University,Palo Alto,CA,4,3,110778,37.430325,-122.10866
,,0.878,,0.8704,,,0.6097,0.6654,0.5859,0.9481,,0.878,California Beauty School,Modesto,CA,1,3,110875,37.645371,-120.997481
,7010.0,,,,,,,,0.5859,,,,Haven University,Garden Grove,CA,4,2,111045,33.777392,-117.939412
,,0.825,,0.8269,,,0.025,0.6654,0.5859,0.6164,,0.825,California Hair Design Academy,La Mesa,CA,1,3,111054,32.765221,-117.024261
0.2595,56724.0,,0.6399,,0.6964,0.4891,,0.5839,0.5859,,0.6789,0.6399,California Institute of the Arts,Valencia,CA,4,2,111081,34.39327,-118.566837
0.9873,7672.0,,0.6493,,0.6596,0.4945,,0.5839,0.5859,,0.6471,0.6493,California State University Maritime Academy,Vallejo,CA,4,1,111188,38.069061,-122.231551
,,,,,,,,,0.5859,,,,California Western School of Law,San Diego,CA,4,2,111391,32.722192,-117.162416
,1332.0,0.3977,,0.4105,,,0.2199,0.3315,0.5859,0.3933,,0.3977,Canada College,Redwood City,CA,2,1,111434,37.44877,-122.265398
,1176.0,0.4344,,0.4852,,,0.2754,0.3315,0.5859,0.4117,,0.4344,College of the Canyons,Santa Clarita,CA,2,1,111461,34.403993,-118.568698
,,0.7571,,0.7654,,,0.1714,0.6654,0.5859,0.6923,,0.7571,Career Academy of Beauty,Garden Grove,CA,1,3,111513,33.781018,-118.031697
0.3641,,,0.5362,,,,,0.3315,0.5859,,0.5273,0.5362,Casa Loma College-Los Angeles,Sherman Oaks,CA,2,2,111638,34.155096,-118.466548
,,0.8256,,0.7015,,,0.0465,0.6654,0.5859,0.7234,,0.8256,CET-San Diego,San Diego,CA,1,2,111708,32.711302,-117.105328
,,0.6543,,0.7469,,,,0.6654,0.5859,0.6667,,0.6543,CET-San Jose,San Jose,CA,1,2,111717,37.322723,-121.88698
,,0.8581,,0.8624,,,,0.6654,0.5859,0.8485,,0.8581,CET-El Centro,El Centro,CA,1,2,111726,32.790908,-115.549079
,,0.6056,,0.6802,,,0.007,0.6654,0.5859,0.5802,,0.6056,CET-Colton,Colton,CA,1,2,111744,34.077381,-117.353488
,,0.693,,0.774,,,,0.6654,0.5859,0.6981,,0.693,CET-Watsonville,Watsonville,CA,1,2,111762,36.931833,-121.767991
,,0.6358,,0.6948,,,,0.6654,0.5859,0.6154,,0.6358,CET-Salinas,Salinas,CA,1,2,111799,36.707333,-121.65236
,1364.0,0.2914,,0.3695,,,0.1452,0.6654,0.5859,0.2715,,0.2914,Cerritos College,Norwalk,CA,2,1,111887,33.886874,-118.097337
,1384.0,0.2742,,0.32,,,0.1246,0.3315,0.5859,0.2692,,0.2742,Cerro Coso Community College,Ridgecrest,CA,2,1,111896,35.567525,-117.66767
,1150.0,0.3793,,0.4184,,,0.195,0.3315,0.5859,0.3932,,0.3793,Chabot College,Hayward,CA,2,1,111920,37.642458,-122.105636
,1184.0,0.2979,,0.3478,,,0.1291,0.3315,0.5859,0.2832,,0.2979,Chaffey College,Rancho Cucamonga,CA,2,1,111939,34.147663,-117.573932
0.5561,62784.0,,0.8191,,0.8054,0.7306,,0.5839,0.5859,,0.7871,0.8191,Chapman University,Orange,CA,4,2,111948,33.79302,-117.852518
0.3878,18933.0,,,,,,,0.5839,0.5859,,,,Charles R Drew University of Medicine and Science,Los Angeles,CA,4,2,111966,33.925658,-118.242791
0.5986,41390.0,,0.628,,0.6399,0.5395,,0.5839,0.5859,,0.6449,0.628,Concordia University-Irvine,Irvine,CA,4,2,112075,33.653665,-117.812305
0.6281,26300.0,,0.29,,0.4096,0.2424,,0.5839,0.5859,,0.4948,0.29,San Diego Christian College,Santee,CA,4,2,112084,32.843454,-116.978089
,,,,,,,,,0.5859,,,,Church Divinity School of the Pacific,Berkeley,CA,4,2,112127,37.876184,-122.261122
,1204.0,0.4275,,0.4654,,,0.284,0.6654,0.5859,0.4254,,0.4275,Citrus College,Glendora,CA,2,1,112172,34.13537,-117.886469
,,0.648,,0.6804,,,0.1564,0.6654,0.5859,0.6912,,0.648,Citrus Heights Beauty College,Citrus Heights,CA,1,3,112181,38.712951,-121.289529
,1696.0,0.3831,,0.4341,,,0.2058,0.6654,0.5859,0.4372,,0.3831,City College of San Francisco,San Francisco,CA,2,1,112190,37.725953,-122.451155
,,,,,,,,,0.5859,,,,Claremont Graduate University,Claremont,CA,4,2,112251,34.103585,-117.713703
0.1112,64150.0,,0.9331,,0.928,0.8262,,0.5839,0.5859,,0.9806,0.9331,Claremont McKenna College,Claremont,CA,4,2,112260,34.102154,-117.711188
,,0.4569,,0.5442,,,0.0342,0.6654,0.5859,0.4668,,0.4569,Milan Institute-Visalia,Visalia,CA,1,3,112288,36.27164,-119.312151
,,0.7673,,0.8297,,,0.7673,0.6654,0.5859,1.0,,0.7673,Clovis Adult Education,Clovis,CA,1,1,112367,36.834459,-119.690369
,1180.0,0.2533,,0.296,,,0.1354,0.3315,0.5859,0.2748,,0.2533,Coastline Community College,Fountain Valley,CA,2,1,112385,33.716054,-117.928979
0.5131,22480.0,,0.4048,,0.4575,0.2857,,0.5839,0.5859,,0.4179,0.4048,University of Silicon Valley,San Jose,CA,4,3,112394,37.414049,-121.94087
,,0.5412,,0.5778,,,0.0706,0.6654,0.5859,0.4853,,0.5412,Coba Academy,Anaheim,CA,1,3,112455,33.841141,-117.943108
,,,,,,,,,0.5859,,,,Western University of Health Sciences,Pomona,CA,4,2,112525,34.058092,-117.747732
,1547.0,0.2866,,0.3702,,,0.1199,0.3315,0.5859,0.2759,,0.2866,Columbia College,Sonora,CA,2,1,112561,38.030367,-120.388385
,26175.0,,0.4811,,0.4924,0.3602,,0.5839,0.5859,,0.4821,0.4811,California College of ASU,Los Angeles,CA,3,2,112570,34.039355,-118.25968
,1142.0,0.1651,,0.1691,,,0.066,0.3315,0.5859,0.2022,,0.1651,Compton College,Compton,CA,2,1,112686,33.878226,-118.209463
,1312.0,0.2824,,0.2994,,,0.1,0.6654,0.5859,0.3004,,0.2824,Contra Costa College,San Pablo,CA,2,1,112826,37.969381,-122.337377
,1288.0,0.32,,0.3814,,,0.1412,0.3315,0.5859,0.2856,,0.32,Cosumnes River College,Sacramento,CA,2,1,113096,38.45295,-121.423108
,1188.0,0.3516,,0.3785,,,0.2056,0.3315,0.5859,0.4049,,0.3516,Crafton Hills College,Yucaipa,CA,2,1,113111,34.039178,-117.101173
,1340.0,0.4398,,0.479,,,0.2554,0.6654,0.5859,0.3631,,0.4398,Cuesta College,San Luis Obispo,CA,2,1,113193,35.331276,-120.742235
,1340.0,0.3239,,0.3996,,,0.1496,0.3315,0.5859,0.2998,,0.3239,Cuyamaca College,El Cajon,CA,2,1,113218,32.744305,-116.942854
,1150.0,,0.3435,,,,,0.6654,0.5859,,0.3499,0.3435,Cypress College,Cypress,CA,3,1,113236,33.82833,-118.025143
,1562.0,0.6716,,0.705,,,0.5982,0.3315,0.5859,0.6851,,0.6716,De Anza College,Cupertino,CA,2,1,113333,37.319914,-122.045783
,,0.8031,,0.8085,,,0.5181,0.6654,0.5859,0.7143,,0.8031,International School of Beauty Inc,Palm Desert,CA,1,3,113449,33.729555,-116.403928
,1326.0,0.281,,0.3419,,,0.1484,0.3315,0.5859,0.2896,,0.281,College of the Desert,Palm Desert,CA,2,1,113573,33.732108,-116.388271
0.875,29350.0,,,,0.4737,,,0.5839,0.5859,,,,Design Institute of San Diego,San Diego,CA,3,3,113582,32.880926,-117.167374
,,,,,,,,,0.5859,,,,Dharma Realm Buddhist University,Ukiah,CA,0,2,113616,39.134532,-123.158174
,1312.0,0.4607,,0.5312,,,0.2827,0.3315,0.5859,0.4279,,0.4607,Diablo Valley College,Pleasant Hill,CA,2,1,113634,37.968516,-122.073142
0.9562,50666.0,,0.7767,,0.7583,0.666,,0.5839,0.5859,,0.7348,0.7767,Dominican University of California,San Rafael,CA,4,2,113698,37.981279,-122.512051
,,,,,,,,,0.5859,,,,Dominican School of Philosophy & Theology,Berkeley,CA,4,2,113704,37.881099,-122.264612
,1238.0,0.3107,,0.3528,,,0.1927,0.3315,0.5859,0.304,,0.3107,East Los Angeles College,Monterey Park,CA,2,1,113856,34.040531,-118.148785
,1144.0,0.3595,,0.4295,,,0.2076,0.3315,0.5859,0.3244,,0.3595,El Camino Community College District,Torrance,CA,2,1,113980,33.885229,-118.329913
,,,,,,,,,0.5859,,,,Emperor's College of Traditional Oriental Medicine,Santa Monica,CA,4,3,114114,34.030438,-118.485119
,,,0.6048,,,,,,0.5859,,0.6102,0.6048,Empire College,Santa Rosa,CA,4,3,114123,38.468052,-122.729337
,1366.0,0.3855,,0.442,,,0.1719,0.3315,0.5859,0.4192,,0.3855,Evergreen Valley College,San Jose,CA,2,1,114266,37.30167,-121.76561
0.415,34325.0,,0.7105,,,,,0.3315,0.5859,,0.576,0.7105,FIDM-Fashion Institute of Design & Merchandising,Los Angeles,CA,4,3,114354,34.044209,-118.25993
,1465.0,,0.4333,,,,,0.3315,0.5859,,0.4037,0.4333,Feather River Community College District,Quincy,CA,3,1,114433,39.953101,-120.973067
,,0.797,,0.7586,,,0.2256,0.6654,0.5859,0.84,,0.797,Federico Beauty Institute,Sacramento,CA,1,3,114460,38.64883,-121.497761
,,,,,,,,,0.5859,,,,Fielding Graduate University,Santa Barbara,CA,4,2,114549,34.42941,-119.717161
,,,,,,,,,0.5859,,,,Five Branches University,Santa Cruz,CA,4,3,114585,36.964348,-121.998245
,,0.9313,,0.9375,,,0.6565,0.6654,0.5859,0.9211,,0.9313,Redondo Beach Beauty College,Torrance,CA,1,3,114637,33.809096,-118.35009
,1565.0,,0.5842,,,,,0.6654,0.5859,,0.5419,0.5842,Foothill College,Los Altos Hills,CA,3,1,114716,37.361655,-122.127964
,,,,,,,,,0.5859,,,,Franciscan School of Theology,San Diego,CA,4,2,114734,32.770816,-117.192073
,,0.641,,0.7255,,,0.0769,0.6654,0.5859,0.6061,,0.641,Fredrick and Charles Beauty College,Eureka,CA,1,3,114761,40.798885,-124.164986
,1334.0,0.2578,,0.2918,,,0.1165,0.3315,0.5859,0.2376,,0.2578,Fresno City College,Fresno,CA,2,1,114789,36.768164,-119.796096
0.5752,35558.0,,0.5303,,0.6975,0.4189,,0.5839,0.5859,,0.4433,0.5303,Fresno Pacific University,Fresno,CA,4,2,114813,36.726831,-119.735199
,,,,,,,,,0.5859,,,,Fuller Theological Seminary,Pasadena,CA,4,2,114840,34.14778,-118.140261
,1150.0,0.3338,,0.4018,,,0.1592,0.3315,0.5859,0.2992,,0.3338,Fullerton College,Fullerton,CA,2,1,114859,33.875514,-117.918255
,1506.0,0.3709,,0.3976,,,0.177,0.3315,0.5859,0.3636,,0.3709,Gavilan College,Gilroy,CA,2,1,114938,36.972627,-121.569842
,,0.3376,,0.7227,,,0.3376,0.6654,0.5859,0.918,,0.3376,Gemological Institute of America-Carlsbad,Carlsbad,CA,1,2,114947,33.131313,-117.318765
,1181.0,0.3211,,0.4155,,,0.1847,0.3315,0.5859,0.3382,,0.3211,Glendale Community College,Glendale,CA,2,1,115001,34.16745,-118.227666
,,,0.6397,,,,,0.3315,0.5859,,0.6528,0.6397,Glendale Career College,Glendale,CA,3,3,115010,34.149771,-118.254719
,31243.0,,,,,,,0.5839,0.5859,,,,Golden Gate University,San Francisco,CA,4,2,115083,37.789374,-122.398969
,1196.0,0.4321,,0.4803,,,0.2362,0.3315,0.5859,0.4343,,0.4321,Golden West College,Huntington Beach,CA,2,1,115126,33.732531,-118.002568
,,,,,,,,,0.5859,,,,Graduate Theological Union,Berkeley,CA,4,2,115214,37.87554,-122.261847
,1332.0,0.2978,,0.3511,,,0.1129,0.3315,0.5859,0.2992,,0.2978,Grossmont College,El Cajon,CA,2,1,115296,32.815246,-117.006277
,,0.7391,,0.7551,,,0.2319,0.6654,0.5859,0.6,,0.7391,Salon Success Academy-Riverside,Riverside,CA,1,3,115357,33.943149,-117.391024
,1404.0,0.3097,,0.4012,,,0.1636,0.3315,0.5859,0.3267,,0.3097,Hartnell College,Salinas,CA,2,1,115393,36.675091,-121.666054
0.1306,66255.0,,0.9291,,0.9384,0.8306,,0.5839,0.5859,,0.95,0.9291,Harvey Mudd College,Claremont,CA,3,2,115409,34.106515,-117.709837
,,0.7059,,0.6364,,,0.0784,0.6654,0.5859,0.6875,,0.7059,Hilltop Beauty School,Daly City,CA,1,3,115658,37.705502,-122.461467
,,,,,,,,,0.5859,,,,Pacifica Graduate Institute,Carpinteria,CA,4,3,115746,34.420881,-119.580414
0.9883,7913.0,,0.4607,,0.5145,0.2324,,0.5839,0.5859,,0.4047,0.4607,California State Polytechnic University-Humboldt,Arcata,CA,4,1,115755,40.877481,-124.078293
,14760.0,,0.629,,0.575,,,0.5839,0.5859,,0.587,0.629,Humphreys University-Stockton and Modesto Campuses,Stockton,CA,4,2,115773,38.011489,-121.316918
,1126.0,0.4085,,0.4398,,,0.2255,0.3315,0.5859,0.3978,,0.4085,Imperial Valley College,Imperial,CA,2,1,115861,32.827209,-115.503563
,,0.7729,,0.8003,,,0.6,0.6654,0.5859,0.7521,,0.7729,Institute for Business and Technology,Santa Clara,CA,1,3,115931,37.368642,-121.969541
,20250.0,,,,,,,0.3315,0.5859,,,,Interior Designers Institute,Newport Beach,CA,4,3,116226,33.641393,-117.865722
,1156.0,0.5629,,0.5958,,,0.3695,0.3315,0.5859,0.5327,,0.5629,Irvine Valley College,Irvine,CA,2,1,116439,33.675381,-117.777539
,,0.7027,,0.73,,,0.2162,0.6654,0.5859,0.7746,,0.7027,Bellus Academy-El Cajon,El Cajon,CA,1,3,116563,32.794072,-116.94627
,,,0.3784,,0.4054,0.3784,,0.6654,0.5859,,,0.3784,American Jewish University,Los Angeles,CA,4,2,116846,34.128153,-118.471706
,1334.0,0.3748,,0.3907,,,0.2178,0.6654,0.5859,0.3512,,0.3748,Reedley College,Reedley,CA,2,1,117052,36.605428,-119.458555
0.9395,20462.0,,0.527,,0.4379,0.3193,,0.5839,0.5859,,0.5783,0.527,Life Pacific University,San Dimas,CA,4,2,117104,34.098705,-117.829388
0.4848,47000.0,,0.6438,,0.6951,0.539,,0.5839,0.5859,,0.6147,0.6438,University of La Verne,La Verne,CA,4,2,117140,34.100855,-117.773262
0.7761,35650.0,,0.6307,,0.6803,0.4432,,0.5839,0.5859,,0.5714,0.6307,Laguna College of Art and Design,Laguna Beach,CA,4,2,117168,33.561448,-117.772564
,1131.0,0.38,,0.3868,,,0.27,0.3315,0.5859,0.4493,,0.38,Lake Tahoe Community College,South Lake Tahoe,CA,2,1,117195,38.926797,-119.972574
,,0.4182,,0.5738,,,0.2727,0.6654,0.5859,,,0.4182,Lancaster Beauty School,Lancaster,CA,1,3,117238,34.694914,-118.147547
,1148.0,0.3005,,0.3118,,,0.1818,0.3315,0.5859,0.314,,0.3005,Laney College,Oakland,CA,2,1,117247,37.797257,-122.26283
,1144.0,0.257,,0.2847,,,0.1044,0.3315,0.5859,0.2973,,0.257,Lassen Community College,Susanville,CA,2,1,117274,40.432053,-120.633271
0.6818,12320.0,,0.5,,,,,0.3315,0.5859,,,0.5,Latin American Bible Institute,La Puente,CA,3,2,117283,34.030992,-117.989601
,,,,,,,,,0.5859,,,,Life Chiropractic College West,Hayward,CA,4,2,117520,37.638099,-122.117619
,11420.0,,0.7671,,0.7736,0.7123,,0.5839,0.5859,,,0.7671,Lincoln University,Oakland,CA,4,2,117557,37.804788,-122.269745
,18720.0,,,,,,,0.5839,0.5859,,,,Southern California Seminary,El Cajon,CA,4,2,117575,32.799614,-116.905461
0.933,35910.0,,0.6486,,0.5915,0.166,,0.5839,0.5859,,0.5965,0.6486,La Sierra University,Riverside,CA,4,2,117627,33.910704,-117.500054
,,,,,,,,0.5839,0.5859,,,,Loma Linda University,Loma Linda,CA,4,2,117636,34.051241,-117.260605
,1556.0,0.242,,0.2863,,,0.1287,0.6654,0.5859,0.2207,,0.242,Long Beach City College,Long Beach,CA,2,1,117645,33.833593,-118.135633
,10769.0,,,,,,,0.6654,0.5859,,,,Southern California University of Health Sciences,Whittier,CA,4,2,117672,33.922966,-117.983401
,1238.0,0.3254,,0.3395,,,0.1833,0.3315,0.5859,0.3506,,0.3254,Los Angeles Harbor College,Wilmington,CA,2,1,117690,33.785825,-118.283549
,1238.0,0.3874,,0.44,,,0.2287,0.3315,0.5859,0.4089,,0.3874,Los Angeles Pierce College,Woodland Hills,CA,2,1,117706,34.183949,-118.575071
,1238.0,0.2259,,0.223,,,0.1403,0.3315,0.5859,0.2538,,0.2259,Los Angeles Southwest College,Los Angeles,CA,2,1,117715,33.929586,-118.304674
,1238.0,0.2527,,0.2742,,,0.1311,0.6654,0.5859,0.2902,,0.2527,Los Angeles Trade Technical College,Los Angeles,CA,2,1,117724,34.031907,-118.269447
,1238.0,0.3597,,0.3844,,,0.1963,0.3315,0.5859,0.3612,,0.3597,Los Angeles Valley College,Valley Glen,CA,2,1,117733,34.175165,-118.421734
0.7589,36930.0,,0.6868,,0.7081,0.5602,,0.5839,0.5859,,0.7526,0.6868,The Master's University and Seminary,Santa Clarita,CA,4,2,117751,34.381755,-118.518193
,1238.0,0.238,,0.2813,,,0.1136,0.3315,0.5859,0.2543,,0.238,Los Angeles City College,Los Angeles,CA,2,1,117788,34.087301,-118.292169
,,,,,,,,0.3315,0.5859,,,,Los Angeles County College of Nursing and Allied Health,Los Angeles,CA,2,1,117803,34.062647,-118.211852
,1238.0,0.2613,,0.2673,,,0.1236,0.3315,0.5859,0.2763,,0.2613,Los Angeles Mission College,Sylmar,CA,2,1,117867,34.314668,-118.4195
,1312.0,0.3862,,0.4379,,,0.1697,0.3315,0.5859,0.3744,,0.3862,Los Medanos College,Pittsburg,CA,2,1,117894,38.006474,-121.860967
0.4029,58974.0,,0.8061,,0.8131,0.7224,,0.5839,0.5859,,0.8022,0.8061,Loyola Marymount University,Los Angeles,CA,4,2,117946,33.97085,-118.415744
,,0.7009,,0.6908,,,0.1795,0.6654,0.5859,0.75,,0.7009,Lu Ross Academy,Ventura,CA,1,3,117955,34.278034,-119.293952
,,0.5645,,0.4103,,,0.1452,0.6654,0.5859,,,0.5645,Lyle's College of Beauty,Bakersfield,CA,1,3,118134,35.386539,-119.02387
,,,,0.5714,,,,0.6654,0.5859,,,,Lyle's College of  Beauty,Fresno,CA,1,3,118143,36.836265,-119.774167
,,0.8763,,0.8572,,,0.3093,0.6654,0.5859,,,0.8763,Lytles Redwood Empire Beauty College,Santa Rosa,CA,1,3,118161,38.508385,-122.75777
0.8193,,0.6984,,0.6806,,,0.5238,0.6654,0.5859,0.5951,,0.6984,MTI College,Sacramento,CA,2,3,118198,38.661377,-121.342568
,1558.0,0.3441,,0.4101,,,0.1293,0.3315,0.5859,0.3571,,0.3441,College of Marin,Kentfield,CA,2,1,118347,37.951918,-122.548758
,1423.0,0.3077,,0.3069,,,0.149,0.3315,0.5859,0.3333,,0.3077,Mendocino College,Ukiah,CA,2,1,118684,39.188989,-123.228809
0.6781,51070.0,,0.5415,,0.5479,0.3887,,0.5839,0.5859,,0.6116,0.5415,Menlo College,Atherton,CA,3,2,118693,37.453475,-122.190797
,1194.0,0.2914,,0.3698,,,0.1548,0.3315,0.5859,0.2992,,0.2914,Merced College,Merced,CA,2,1,118718,37.3353,-120.476464
,1167.0,0.2094,,0.2488,,,0.1178,0.3315,0.5859,0.2123,,0.2094,Merritt College,Oakland,CA,2,1,118772,37.789088,-122.167335
0.1654,63949.0,,,,,,,0.5839,0.5859,,,,Northeastern University Oakland,Oakland,CA,0,2,118888,37.781425,-122.182294
,1152.0,,0.4184,,,,,0.6654,0.5859,,0.3629,0.4184,MiraCosta College,Oceanside,CA,3,1,118912,33.190483,-117.302606
,1438.0,0.4259,,0.478,,,0.2187,0.3315,0.5859,0.3882,,0.4259,Mission College,Santa Clara,CA,2,1,118930,37.391935,-121.980783
,,0.6207,,0.6471,,,0.1207,0.6654,0.5859,0.7,,0.6207,Modern Beauty Academy,Oxnard,CA,1,3,118958,34.195384,-119.181423
,1270.0,,0.2543,,,,,0.3315,0.5859,,0.2353,0.2543,Modesto Junior College,Modesto,CA,3,1,118976,37.651056,-121.009792
,,0.4227,,0.3876,,,0.0773,0.6654,0.5859,0.4123,,0.4227,Moler Barber College,Oakland,CA,1,3,118994,37.827075,-122.265352
,,,,,,,,0.5839,0.5859,,,,Middlebury Institute of International Studies at Monterey,Monterey,CA,4,2,119058,36.599736,-121.897325
,1188.0,0.283,,0.3688,,,0.1355,0.3315,0.5859,0.2603,,0.283,Monterey Peninsula College,Monterey,CA,2,1,119067,36.590558,-121.884931
,1416.0,0.4025,,0.4902,,,0.2157,0.3315,0.5859,0.401,,0.4025,Moorpark College,Moorpark,CA,2,1,119137,34.301146,-118.834528
,1364.0,0.3956,,0.4795,,,0.2179,0.3315,0.5859,0.372,,0.3956,Mt San Antonio College,Walnut,CA,2,1,119164,34.047764,-117.846629
0.6872,48132.0,,0.5668,,0.6474,0.44,,0.5839,0.5859,,0.5435,0.5668,Mount Saint Mary's University,Los Angeles,CA,4,2,119173,34.085315,-118.482879
,1406.0,0.3432,,0.3723,,,0.1814,0.3315,0.5859,0.3543,,0.3432,Mt San Jacinto Community College District,San Jacinto,CA,2,1,119216,33.806748,-116.971169
0.7129,28400.0,,0.4689,,0.5714,0.1639,,0.6654,0.5859,,0.3421,0.4689,Musicians Institute,Hollywood,CA,4,3,119270,34.101265,-118.337582
,1156.0,0.3167,,0.4157,,,0.1233,0.3315,0.5859,0.3316,,0.3167,Napa Valley College,Napa,CA,2,1,119331,38.274081,-122.274381
,,0.7385,,0.7713,,,0.7088,0.6654,0.5859,0.747,,0.7385,National Holistic Institute,Emeryville,CA,1,3,119553,37.841898,-122.287672
,13320.0,,0.44,,0.4643,0.1143,,0.5839,0.5859,,,0.44,National University,San Diego,CA,4,2,119605,32.829299,-117.127296
,,,,,,,,,0.5859,,,,Naval Postgraduate School,Monterey,CA,4,1,119678,36.597159,-121.874248
1.0,30291.0,,0.4719,,0.4944,0.2135,,0.5839,0.5859,,0.3692,0.4719,Newschool of Architecture and Design,San Diego,CA,4,3,119775,32.71331,-117.153305
,,0.5795,,0.5604,,,0.0566,0.6654,0.5859,0.52,,0.5795,North Adrian's College of Beauty Inc,Modesto,CA,1,3,119951,37.677778,-120.992753
,,0.6224,,0.6434,,,0.1198,0.6654,0.5859,0.6187,,0.6224,North-West College-Pomona,Pomona,CA,1,3,120069,34.062043,-117.751227
,,0.6376,,0.6284,,,0.4718,0.6654,0.5859,0.6049,,0.6376,North-West College-West Covina,West Covina,CA,2,3,120078,34.072071,-117.949583
,,0.596,,0.5991,,,0.1919,0.6654,0.5859,0.5702,,0.596,North-West College-Van Nuys,Van Nuys,CA,1,3,120087,34.189497,-118.450184
0.6939,8775.0,,,,0.3871,,,0.5839,0.5859,,,,San Francisco Bay University,Fremont,CA,4,2,120166,37.485056,-121.927899
,,,0.392,,0.5246,0.3395,,0.5839,0.5859,,0.3943,0.392,Notre Dame de Namur University,Belmont,CA,4,2,120184,37.517111,-122.284794
0.3989,63446.0,,0.8396,,0.8348,0.7439,,0.5839,0.5859,,0.8705,0.8396,Occidental College,Los Angeles,CA,3,2,120254,34.127124,-118.210908
,1202.0,0.5506,,0.5981,,,0.3482,0.3315,0.5859,0.5978,,0.5506,Ohlone College,Fremont,CA,2,1,120290,37.529931,-121.911795
,1208.0,0.4517,,0.5153,,,0.2301,0.6654,0.5859,0.4379,,0.4517,Orange Coast College,Costa Mesa,CA,2,1,120342,33.66927,-117.909086
0.8398,55513.0,,0.6109,,0.7133,0.5468,,0.5839,0.5859,,0.6466,0.6109,Otis College of Art and Design,Los Angeles,CA,4,2,120403,33.956607,-118.416615
,1416.0,0.3242,,0.3913,,,0.1625,0.3315,0.5859,0.3377,,0.3242,Oxnard College,Oxnard,CA,2,1,120421,34.166104,-119.157604
0.3539,36250.0,,0.4789,,0.4694,0.385,,0.5839,0.5859,,0.4138,0.4789,Hope International University,Fullerton,CA,4,2,120537,33.87616,-117.88573
0.9395,,0.6651,,0.6577,,,0.3535,0.6654,0.5859,0.6625,,0.6651,Concorde Career College-San Diego,San Diego,CA,2,3,120661,32.702814,-117.102845
,,,,,,,,0.5839,0.5859,,,,Palo Alto University,Palo Alto,CA,4,2,120698,37.382216,-122.187437
0.1,33360.0,,,,,,,0.5839,0.5859,,,,Pacific Oaks College,Pasadena,CA,4,2,120768,34.153382,-118.151323
,,,,,,,,,0.5859,,,,Pacific School of Religion,Berkeley,CA,4,2,120795,37.87669,-122.263155
,9810.0,,,,,,,,0.5859,,,,Pacific States University,Los Angeles,CA,4,2,120838,34.061315,-118.298408
0.4248,35214.0,,0.4879,,0.4634,0.341,,0.5839,0.5859,,0.4229,0.4879,Pacific Union College,Angwin,CA,4,2,120865,38.570585,-122.440308
0.9486,55340.0,,0.7046,,0.6968,0.4574,,0.5839,0.5859,,0.6896,0.7046,University of the Pacific,Stockton,CA,4,2,120883,37.981424,-121.312301
,1288.0,0.2522,,0.3357,,,0.1391,0.3315,0.5859,0.32,,0.2522,Palo Verde College,Blythe,CA,2,1,120953,33.661538,-114.651698
,1354.0,0.3222,,0.3611,,,0.1575,0.6654,0.5859,0.2883,,0.3222,Palomar College,San Marcos,CA,2,1,120971,33.149483,-117.183978
,1180.0,0.4114,,0.4822,,,0.264,0.3315,0.5859,0.4039,,0.4114,Pasadena City College,Pasadena,CA,2,1,121044,34.144552,-118.118196
0.4985,66742.0,,0.8435,,0.8636,0.7569,,0.5839,0.5859,,0.8558,0.8435,Pepperdine University,Malibu,CA,4,2,121150,34.037786,-118.707077
0.1666,62692.0,,0.8434,,0.8692,0.6906,,0.5839,0.5859,,0.9306,0.8434,Pitzer College,Claremont,CA,3,2,121257,34.104107,-117.706675
0.8176,43550.0,,0.7484,,0.7342,0.6856,,0.5839,0.5859,,0.7016,0.7484,Point Loma Nazarene University,San Diego,CA,4,2,121309,32.718391,-117.250265
0.0676,62326.0,,0.9391,,0.9398,0.793,,0.5839,0.5859,,0.9494,0.9391,Pomona College,Claremont,CA,3,2,121345,34.099027,-117.714556
,1409.0,0.276,,0.3745,,,0.1411,0.3315,0.5859,0.2959,,0.276,Porterville College,Porterville,CA,2,1,121363,36.049256,-119.014368
,,0.5217,,0.4679,,,0.1594,0.6654,0.5859,0.5217,,0.5217,Professional Institute of Beauty,El Monte,CA,1,3,121433,34.075561,-118.039028
,1180.0,,0.2919,,,,,0.6654,0.5859,,0.3269,0.2919,Santa Ana College,Santa Ana,CA,3,1,121619,33.759309,-117.887558
,,,,,,,,,0.5859,,,,Pardee RAND Graduate School,Santa Monica,CA,4,2,121628,34.00973,-118.490655
,,0.75,,0.7115,,,0.0962,0.6654,0.5859,0.7667,,0.75,Shasta School of Cosmetology,Redding,CA,1,3,121637,40.597114,-122.387248
0.8092,57614.0,,0.69,,0.715,0.5887,,0.5839,0.5859,,0.6697,0.69,University of Redlands,Redlands,CA,4,2,121691,34.064218,-117.163218
,1147.0,0.2468,,0.2765,,,0.1226,0.3315,0.5859,0.259,,0.2468,College of the Redwoods,Eureka,CA,2,1,121707,40.698427,-124.195293
,,0.7073,,0.6746,,,0.2683,0.6654,0.5859,0.6585,,0.7073,Salon Success Academy-Upland,Upland,CA,1,3,121859,34.108247,-117.631783
,,0.8485,,0.8333,,,0.3939,0.6654,0.5859,0.8036,,0.8485,Salon Success Academy-Corona,Corona,CA,1,3,121868,33.847649,-117.535638
,1388.0,,0.26,,,,,0.3315,0.5859,,0.2622,0.26,Rio Hondo College,Whittier,CA,3,1,121886,34.019821,-118.033506
,1420.0,0.3229,,0.3872,,,0.1912,0.3315,0.5859,0.2841,,0.3229,Riverside City College,Riverside,CA,2,1,121901,33.970918,-117.384323
,,,,,,,,,0.5859,,,,Dongguk University Los Angeles,Los Angeles,CA,4,2,122117,34.06597,-118.289523
,1288.0,0.2854,,0.3192,,,0.1241,0.3315,0.5859,0.2619,,0.2854,Sacramento City College,Sacramento,CA,2,1,122180,38.541096,-121.491139
,1432.0,0.4437,,0.5248,,,0.2547,0.3315,0.5859,0.4199,,0.4437,Saddleback College,Mission Viejo,CA,2,1,122205,33.553346,-117.665584
,,,,,,,,0.5839,0.5859,,,,Samuel Merritt University,Oakland,CA,4,2,122296,37.82029,-122.266331
,1150.0,0.239,,0.2909,,,0.1004,0.3315,0.5859,0.2566,,0.239,San Diego City College,San Diego,CA,2,1,122339,32.717403,-117.152733
,1150.0,,0.3377,,,,,0.3315,0.5859,,0.3207,0.3377,San Diego Mesa College,San Diego,CA,3,1,122375,32.803825,-117.169165
,1150.0,0.4306,,0.4813,,,0.2481,0.3315,0.5859,0.4595,,0.4306,San Diego Miramar College,San Diego,CA,2,1,122384,32.909757,-117.120261
0.3444,8290.0,,0.7814,,0.7752,0.5513,,0.5839,0.5859,,0.7256,0.7814,San Diego State University,San Diego,CA,4,1,122409,32.77525,-117.071228
0.4675,56444.0,,0.8208,,0.8079,0.7081,,0.5839,0.5859,,0.7701,0.8208,University of San Diego,San Diego,CA,4,2,122436,32.770816,-117.192073
0.5194,54550.0,,0.5739,,0.7123,0.5044,,0.5839,0.5859,,0.6923,0.5739,San Francisco Conservatory of Music,San Francisco,CA,4,2,122506,37.775543,-122.420292
0.9615,7424.0,,0.5225,,0.5727,0.2686,,0.5839,0.5859,,0.4901,0.5225,San Francisco State University,San Francisco,CA,4,1,122597,37.721224,-122.476799
0.5077,58222.0,,0.7278,,0.737,0.6543,,0.5839,0.5859,,0.7324,0.7278,University of San Francisco,San Francisco,CA,4,2,122612,37.776618,-122.450477
,,,,,,,,,0.5859,,,,San Joaquin College of Law,Clovis,CA,4,2,122649,36.82448,-119.697657
,1288.0,0.307,,0.3575,,,0.1571,0.3315,0.5859,0.3185,,0.307,San Joaquin Delta College,Stockton,CA,2,1,122658,37.995562,-121.317597
,,,0.3289,,,,,0.6654,0.5859,,0.3305,0.3289,San Joaquin Valley College-Visalia,Visalia,CA,3,3,122685,36.328049,-119.384981
,,0.4568,,0.5374,,,0.2994,0.6654,0.5859,0.4464,,0.4568,San Joaquin Valley College-Bakersfield,Bakersfield,CA,2,3,122694,35.352848,-119.062071
0.7682,37150.0,,0.5589,,0.5723,0.4548,,0.5839,0.5859,,0.4468,0.5589,William Jessup University,Rocklin,CA,4,2,122728,38.819728,-121.292312
,1366.0,0.3301,,0.3714,,,0.1799,0.6654,0.5859,0.3734,,0.3301,San Jose City College,San Jose,CA,2,1,122746,37.315827,-121.926185
0.8023,7992.0,,0.6622,,0.7115,0.2948,,0.5839,0.5859,,0.6272,0.6622,San Jose State University,San Jose,CA,4,1,122755,37.336569,-121.880621
,1332.0,0.506,,0.4934,,,0.3172,0.3315,0.5859,0.479,,0.506,College of San Mateo,San Mateo,CA,2,1,122791,37.535698,-122.334801
,1234.0,0.3786,,0.4533,,,0.2421,0.3315,0.5859,0.3678,,0.3786,Santa Barbara City College,Santa Barbara,CA,2,1,122889,34.406788,-119.698045
0.4384,59241.0,,0.8849,,0.9181,0.8352,,0.5839,0.5859,,0.9338,0.8849,Santa Clara University,Santa Clara,CA,4,2,122931,37.348362,-121.93784
,1156.0,,0.3398,,,,,0.3315,0.5859,,0.2858,0.3398,Santa Monica College,Santa Monica,CA,3,1,122977,34.017022,-118.469765
,1318.0,0.3223,,0.4054,,,0.1407,0.6654,0.5859,0.3007,,0.3223,Santa Rosa Junior College,Santa Rosa,CA,2,1,123013,38.45709,-122.718974
,,,,,,,,,0.5859,,,,Saybrook University,Pasadena,CA,4,2,123095,34.153103,-118.152155
0.3394,63434.0,,0.8574,,0.8511,0.7215,,0.5839,0.5859,,0.8636,0.8574,Scripps College,Claremont,CA,4,2,123165,34.104147,-117.711294
,1394.0,0.3185,,0.3831,,,0.16,0.3315,0.5859,0.3114,,0.3185,College of the Sequoias,Visalia,CA,2,1,123217,36.323877,-119.315182
1.0,14535.0,,,,,,,0.5839,0.5859,,,,Shasta Bible College and Graduate School,Redding,CA,4,2,123280,40.566034,-122.314419
,1197.0,,0.3025,,,,,0.3315,0.5859,,0.2691,0.3025,Shasta College,Redding,CA,3,1,123299,40.625731,-122.317982
,1156.0,0.3579,,0.4143,,,0.1766,0.3315,0.5859,0.3378,,0.3579,Sierra College,Rocklin,CA,2,1,123341,38.790773,-121.211688
,,0.8125,,0.8038,,,0.4375,0.6654,0.5859,0.8214,,0.8125,Sierra College of Beauty,Merced,CA,1,3,123350,37.306975,-120.495874
,,,,,,,,,0.5859,,,,Trinity Law School,Santa Ana,CA,4,2,123448,33.766071,-117.852059
0.9903,38522.0,,0.4434,,0.5093,0.3821,,0.5839,0.5859,,0.4941,0.4434,Simpson University,Redding,CA,4,2,123457,40.61334,-122.332981
,1444.0,0.2657,,0.2872,,,0.1513,0.3315,0.5859,0.2587,,0.2657,College of the Siskiyous,Weed,CA,2,1,123484,41.413005,-122.38909
,,0.5492,,0.5034,,,0.4372,0.6654,0.5859,0.6972,,0.5492,Charles A Jones Career and Education Center,Sacramento,CA,1,1,123493,38.516233,-121.440796
,1332.0,,0.4082,,,,,0.3315,0.5859,,,0.4082,Skyline College,San Bruno,CA,3,1,123509,37.63042,-122.467335
,1185.0,0.2058,,0.2463,,,0.1067,0.6654,0.5859,0.2393,,0.2058,San Bernardino Valley College,San Bernardino,CA,2,1,123527,34.086353,-117.313248
0.8858,56134.0,,0.7042,,0.7549,0.6454,,0.5839,0.5859,,0.6994,0.7042,Saint Mary's College of California,Moraga,CA,4,2,123554,37.840731,-122.109031
,1172.0,,0.3383,,,,,0.3315,0.5859,,0.3409,0.3383,Solano Community College,Fairfield,CA,3,1,123563,38.235881,-122.122368
0.9473,8190.0,,0.6011,,0.6172,0.409,,0.5839,0.5859,,0.5602,0.6011,Sonoma State University,Rohnert Park,CA,4,1,123572,38.340274,-122.677066
,,,,,,,,,0.5859,,,,South Baylo University,Anaheim,CA,4,2,123633,33.848291,-117.958416
,13409.0,0.282,,0.3333,,,0.2564,0.6654,0.5859,,,0.282,South Coast College,Orange,CA,2,3,123642,33.78818,-117.874031
0.647,39950.0,,0.5763,,0.631,0.5273,,0.5839,0.5859,,0.522,0.5763,Vanguard University of Southern California,Costa Mesa,CA,4,2,123651,33.662686,-117.900911
0.9593,,0.7831,,0.7619,,,0.5537,0.6654,0.5859,0.7787,,0.7831,Concorde Career College-Garden Grove,Garden Grove,CA,2,3,123679,33.774741,-117.938395
,1344.0,0.3138,,0.3892,,,0.1281,0.3315,0.5859,0.3178,,0.3138,Southwestern College,Chula Vista,CA,2,1,123800,32.640281,-116.996803
,,,,,,,,,0.5859,,,,Starr King School for the Ministry,Oakland,CA,4,2,123916,37.803526,-122.270721
,,,,,,,,,0.5859,,,,Marshall B Ketchum University,Fullerton,CA,4,2,123943,33.889348,-117.886229
0.8267,53564.0,,0.7647,,0.8197,,,0.5839,0.5859,,,0.7647,Southern California Institute of Architecture,Los Angeles,CA,4,2,123952,34.044215,-118.232799
0.1002,68237.0,,0.9223,,0.9222,0.7776,,0.5839,0.5859,,0.9176,0.9223,University of Southern California,Los Angeles,CA,4,2,123961,34.021281,-118.284169
,,,,,,,,,0.5859,,,,Southwestern Law School,Los Angeles,CA,4,2,123970,34.061558,-118.288375
,1108.0,0.3368,,0.3612,,,0.1965,0.3315,0.5859,0.3122,,0.3368,Taft College,Taft,CA,2,1,124113,35.149343,-119.459751
,,,,,,,,,0.5859,,,,Claremont School of Theology,Claremont,CA,4,2,124283,34.107602,-117.715256
0.7871,28700.0,,0.8352,,0.8563,0.8125,,0.5839,0.5859,,0.7907,0.8352,Thomas Aquinas College,Santa Paula,CA,3,2,124292,34.429009,-119.087141
,15072.0,,,,,,,0.5839,0.5859,,,,Epic Bible College & Graduate School,Sacramento,CA,4,2,124487,38.645152,-121.362642
,,0.6097,,0.6549,,,0.1985,0.6654,0.5859,0.5969,,0.6097,UEI College-Huntington Park,Huntington Park,CA,1,3,124681,33.986057,-118.226206
0.981,,0.6517,,0.6108,,,0.4036,0.6654,0.5859,0.6597,,0.6517,Concorde Career College-San Bernardino,San Bernardino,CA,2,3,124706,34.066823,-117.283995
0.9902,,0.7089,,0.683,,,0.4812,0.6654,0.5859,0.6968,,0.7089,Concorde Career College-North Hollywood,North Hollywood,CA,2,3,124937,34.186407,-118.403627
,1416.0,0.408,,0.4652,,,0.2291,0.3315,0.5859,0.3707,,0.408,Ventura College,Ventura,CA,2,1,125028,34.277393,-119.230604
,,,,,,,,,0.5859,,,,The Colleges of Law at Ventura,Ventura,CA,4,2,125037,34.25747,-119.232988
,,0.6522,,0.4773,,,0.1304,0.6654,0.5859,0.5806,,0.6522,Bridges Beauty College,Victorville,CA,1,3,125082,34.528602,-117.303933
,1425.0,0.269,,0.2966,,,0.1225,0.6654,0.5859,0.2648,,0.269,Victor Valley College,Victorville,CA,2,1,125091,34.472231,-117.261456
,1148.0,0.4157,,0.4474,,,0.2381,0.3315,0.5859,0.4943,,0.4157,Berkeley City College,Berkeley,CA,2,1,125170,37.869769,-122.269877
,12498.0,,,,,,,0.5839,0.5859,,,,Walden University,Minneapolis,MN,4,3,125231,44.98125,-93.265738
,,0.7458,,0.7358,,,0.0847,0.6654,0.5859,0.7358,,0.7458,Waynes College of Beauty,Salinas,CA,1,3,125310,36.700635,-121.652672
,1384.0,0.3419,,0.3547,,,0.2032,0.3315,0.5859,0.3496,,0.3419,Coalinga College,Coalinga,CA,2,1,125462,36.147891,-120.356747
,1238.0,,0.2431,,,,,0.3315,0.5859,,0.2484,0.2431,West Los Angeles College,Culver City,CA,3,1,125471,34.004512,-118.386664
,1490.0,0.4854,,0.5055,,,0.2873,0.3315,0.5859,0.4645,,0.4854,West Valley College,Saratoga,CA,2,1,125499,37.26398,-122.008324
,,,0.518,,,,,0.6654,0.5859,0.4656,,0.518,Carrington College-Sacramento,Sacramento,CA,2,3,125532,38.556104,-121.371383
,,,,,,,,,0.5859,,,,Westminster Theological Seminary in California,Escondido,CA,4,2,125718,33.121447,-117.046371
0.7986,51790.0,,0.7182,,0.7283,0.6924,,0.5839,0.5859,,0.6547,0.7182,Westmont College,Santa Barbara,CA,3,2,125727,34.450151,-119.662517
0.8538,49864.0,,0.6437,,0.6482,0.5758,,0.5839,0.5859,,0.611,0.6437,Whittier College,Whittier,CA,4,2,125763,33.978773,-118.032299
0.7287,44886.0,,0.548,,0.6299,0.304,,0.5839,0.5859,,0.5556,0.548,Woodbury University,Burbank,CA,4,2,125897,34.208011,-118.341147
,,,,,,,,,0.5859,,,,The Wright Institute,Berkeley,CA,4,2,126012,37.868221,-122.253168
,,,,,,,,,0.5859,,,,Thomas Jefferson School of Law,San Diego,CA,4,2,126049,32.717595,-117.157862
0.6168,16900.0,,0.1895,,0.2035,0.1789,,0.5839,0.5859,,0.186,0.1895,Yeshiva Ohr Elchonon Chabad West Coast Talmudical Seminary,Los Angeles,CA,3,2,126076,34.085465,-118.346613
,1128.0,0.3031,,0.2795,,,0.1074,0.3315,0.5859,0.3169,,0.3031,Yuba College,Marysville,CA,2,1,126119,39.126536,-121.53964
,9776.0,,0.2966,,0.3383,0.1886,,0.5839,0.5859,,0.2854,0.2966,Adams State University,Alamosa,CO,4,1,126182,37.473636,-105.879642
,2090.0,,0.3507,,,,,0.6654,0.5859,0.2315,,0.3507,Aims Community College,Greeley,CO,2,1,126207,40.409559,-104.763415
,4308.0,,0.2673,,,,,0.6654,0.5859,,0.2227,0.2673,Arapahoe Community College,Littleton,CO,3,1,126289,39.607505,-105.018631
0.5942,13819.0,0.5983,,0.4554,,,0.5983,0.3315,0.5859,0.5,,0.5983,Bel-Rea Institute of Animal Technology,Denver,CO,2,3,126359,39.686194,-104.876207
0.7781,10017.0,,0.4565,,0.4913,0.2569,,0.5839,0.5859,,0.4438,0.4565,University of Colorado Denver/Anschutz Medical Campus,Denver,CO,4,1,126562,39.745149,-104.837722
0.9657,9712.0,,0.4391,,0.467,0.264,,0.5839,0.5859,,0.3569,0.4391,University of Colorado Colorado Springs,Colorado Springs,CO,4,1,126580,38.892735,-104.800296
,17406.0,0.716,,0.7771,,,0.5648,0.3315,0.5859,0.7097,,0.716,Spartan College of Aeronautics and Technology,Broomfield,CO,2,3,126605,39.914822,-105.119096
0.8328,16430.0,,0.7489,,0.7479,0.5765,,0.5839,0.5859,,0.6814,0.7489,University of Colorado Boulder,Boulder,CO,4,1,126614,40.008781,-105.270823
,39266.0,,0.5806,,0.6022,0.5076,,0.5839,0.5859,,0.5538,0.5806,Colorado Christian University,Lakewood,CO,4,2,126669,39.71388,-105.09456
0.2003,67932.0,,0.8605,,0.8709,0.7972,,0.5839,0.5859,,0.8241,0.8605,Colorado College,Colorado Springs,CO,4,2,126678,38.84886,-104.822697
1.0,,,0.7016,,,,,0.6654,0.5859,,,0.7016,Concorde Career College-Aurora,Aurora,CO,2,3,126687,39.718699,-104.867089
,2700.0,,0.2645,,0.1358,0.0422,,0.6654,0.5859,,0.3168,0.2645,Colorado Mountain College,Glenwood Springs,CO,3,1,126711,39.54636,-107.324441
,4454.0,0.2905,,0.3556,,,0.2206,0.3315,0.5859,0.3465,,0.2905,Colorado Northwestern Community College,Rangely,CO,2,1,126748,40.081112,-108.790048
0.5971,21186.0,,0.8053,,0.8431,0.6581,,0.5839,0.5859,,0.7385,0.8053,Colorado School of Mines,Golden,CO,4,1,126775,39.751443,-105.223364
0.7692,,0.7895,,0.7333,,,0.7281,0.3315,0.5859,0.7447,,0.7895,Colorado School of Trades,Lakewood,CO,2,3,126784,39.74181,-105.104174
0.8959,12896.0,,0.6676,,0.7093,0.4728,,0.5839,0.5859,,0.5797,0.6676,Colorado State University-Fort Collins,Fort Collins,CO,4,1,126818,40.574805,-105.080732
,12760.0,,0.1857,,0.206,0.1232,,0.5839,0.5859,,0.1841,0.1857,Colorado Technical University-Colorado Springs,Colorado Springs,CO,4,3,126827,38.895069,-104.85716
,4030.0,0.2649,,0.3277,,,0.1807,0.3315,0.5859,0.239,,0.2649,Community College of Aurora,Aurora,CO,2,1,126863,39.71788,-104.802673
,,0.8871,,0.8833,,,0.8871,0.6654,0.5859,1.0,,0.8871,Technical College of the Rockies,Delta,CO,1,1,126915,38.702524,-108.031072
,4902.0,,0.1678,,,,,0.3315,0.5859,,0.1499,0.1678,Community College of Denver,Denver,CO,3,1,126942,39.741413,-105.001044
,,0.6725,,0.6516,,,0.5351,0.6654,0.5859,0.6304,,0.6725,Lincoln College of Technology-Denver,Denver,CO,2,3,126951,39.77651,-104.856171
,,,,,,,,,0.5859,,,,Denver Seminary,Littleton,CO,4,2,126979,39.600595,-105.022363
0.7119,59340.0,,0.7771,,0.767,0.6977,,0.5839,0.5859,,0.7468,0.7771,University of Denver,Denver,CO,4,2,127060,39.678005,-104.963259
,,0.8733,,0.8545,,,0.8435,0.6654,0.5859,0.9282,,0.8733,Emily Griffith Technical College,Denver,CO,1,1,127158,39.74575,-104.985751
